[
  {
    "code": "CYYZ",
    "brazilian": 0,
    "state": "",
    "latitude": 43.67720032,
    "longitude": -79.63059998,
    "name": "TORONTO PEARSON INTERNATIONAL AIRPORT",
    "city": "TORONTO",
    "country": "CANADA"
  },
  {
    "code": "EDDF",
    "brazilian": 0,
    "state": "",
    "latitude": 50.033333,
    "longitude": 8.570556,
    "name": "FRANKFURT INTERNATIONAL AIRPORT",
    "city": "FRANKFURT",
    "country": "ALEMANHA"
  },
  {
    "code": "EDDM",
    "brazilian": 0,
    "state": "",
    "latitude": 48.353802,
    "longitude": 11.7861,
    "name": "MUNICH INTERNATIONAL AIRPORT (FRANZ JOSEF STRAUÃŸ INTERNATIONAL AIRPORT)",
    "city": "MUNCHEN",
    "country": "ALEMANHA"
  },
  {
    "code": "EGKK",
    "brazilian": 0,
    "state": "",
    "latitude": 51.148102,
    "longitude": -0.190278,
    "name": "LONDON GATWICK AIRPORT",
    "city": "LONDRES",
    "country": "REINO UNIDO"
  },
  {
    "code": "EGLL",
    "brazilian": 0,
    "state": "",
    "latitude": 51.4706,
    "longitude": -0.461941,
    "name": "LONDON HEATHROW AIRPORT",
    "city": "LONDRES",
    "country": "REINO UNIDO"
  },
  {
    "code": "EHAM",
    "brazilian": 0,
    "state": "",
    "latitude": 52.308601,
    "longitude": 4.76389,
    "name": "AMSTERDAM AIRPORT SCHIPHOL",
    "city": "AMSTERDAM",
    "country": "HOLANDA"
  },
  {
    "code": "ELLX",
    "brazilian": 0,
    "state": "",
    "latitude": 49.6233333,
    "longitude": 6.2044444000000025,
    "name": "LUXEMBOURG FINDEL AIRPORT",
    "city": "LUXEMBURGO",
    "country": "LUXEMBURGO"
  },
  {
    "code": "FAJS",
    "brazilian": 0,
    "state": "",
    "latitude": -26.133333,
    "longitude": 28.25,
    "name": "OR TAMBO INTERNATIONAL AIRPORT",
    "city": "JOHANNESBURG",
    "country": "AFRICA DO SUL"
  },
  {
    "code": "FAOR",
    "brazilian": 0,
    "state": "",
    "latitude": -26.1392,
    "longitude": 28.246,
    "name": "OR TAMBO INTERNATIONAL AIRPORT",
    "city": "KEMPTON PARK",
    "country": "AFRICA DO SUL"
  },
  {
    "code": "FNLU",
    "brazilian": 0,
    "state": "",
    "latitude": -8.858369999999997,
    "longitude": 13.2312,
    "name": "QUATRO DE FEVEREIRO AIRPORT",
    "city": "LUANDA",
    "country": "ANGOLA"
  },
  {
    "code": "GCTS",
    "brazilian": 0,
    "state": "",
    "latitude": 28.04450035,
    "longitude": -16.57250023,
    "name": "TENERIFE SOUTH AIRPORT",
    "city": "TENERIFE",
    "country": "ESPANHA"
  },
  {
    "code": "GMMN",
    "brazilian": 0,
    "state": "",
    "latitude": 33.36750031,
    "longitude": -7.5899701120000005,
    "name": "AEROPORTO INTERNACIONAL MOHAMMED V",
    "city": "CASABLANCA",
    "country": "MARROCOS"
  },
  {
    "code": "GOBD",
    "brazilian": 0,
    "state": "",
    "latitude": 14.67,
    "longitude": -17.073332999999998,
    "name": "Blaise DIAGNE INTERNATIONAL AIRPORT",
    "city": "DIASS",
    "country": "SENEGAL"
  },
  {
    "code": "GOOY",
    "brazilian": 0,
    "state": "",
    "latitude": 14.73970032,
    "longitude": -17.49020004,
    "name": "DACAR",
    "city": "DACAR",
    "country": "SENEGAL"
  },
  {
    "code": "GVAC",
    "brazilian": 0,
    "state": "",
    "latitude": 16.7414,
    "longitude": -22.9494,
    "name": "AEROPORTO INTERNACIONAL AMÃLCAR CABRAL",
    "city": "ILHA DO SAL",
    "country": "CABO VERDE"
  },
  {
    "code": "GVNP",
    "brazilian": 0,
    "state": "",
    "latitude": 14.92450047,
    "longitude": -23.49349976,
    "name": "CABO VERDE",
    "city": "CABO VERDE",
    "country": "CABO VERDE"
  },
  {
    "code": "HAAB",
    "brazilian": 0,
    "state": "",
    "latitude": 8.977890015,
    "longitude": 38.79930115,
    "name": "BOLE INTERNATIONAL AIRPORT",
    "city": "ADDIS ABABA",
    "country": "ETIOPIA"
  },
  {
    "code": "KATL",
    "brazilian": 0,
    "state": "",
    "latitude": 33.6367,
    "longitude": -84.428101,
    "name": "HARTSFIELD JACKSON ATLANTA INTERNATIONAL AIRPORT",
    "city": "ATLANTA/INTL",
    "country": "ESTADOS UNIDOS DA AMERICA"
  },
  {
    "code": "KCLT",
    "brazilian": 0,
    "state": "",
    "latitude": 35.21400070000001,
    "longitude": -80.94309998,
    "name": "CHARLOTTE/DOUGLAS INTERNATIONAL AIRPORT",
    "city": "CHARLOTTE DOUGLAS INTL",
    "country": "ESTADOS UNIDOS DA AMERICA"
  },
  {
    "code": "KDFW",
    "brazilian": 0,
    "state": "",
    "latitude": 32.896801,
    "longitude": -97.038002,
    "name": "DALLAS-FORT WORTH INTERNATIONAL AIRPORT",
    "city": "DALLAS/FORT WORTH",
    "country": "ESTADOS UNIDOS DA AMERICA"
  },
  {
    "code": "KDTW",
    "brazilian": 0,
    "state": "",
    "latitude": 42.21239853,
    "longitude": -83.35340118,
    "name": "DETROIT METROPOLITAN WAYNE COUNTY AIRPORT",
    "city": "DETROIT",
    "country": "ESTADOS UNIDOS DA AMERICA"
  },
  {
    "code": "KEWR",
    "brazilian": 0,
    "state": "",
    "latitude": 40.69250107,
    "longitude": -74.16870117,
    "name": "NEWARK LIBERTY INTERNATIONAL AIRPORT",
    "city": "NEWARK / INTL NJ",
    "country": "ESTADOS UNIDOS DA AMERICA"
  },
  {
    "code": "KFLL",
    "brazilian": 0,
    "state": "",
    "latitude": 26.072599,
    "longitude": -80.152702,
    "name": "FORT LAUDERDALE-HOLLYWOOD INTERNATIONAL AIRPORT",
    "city": "FORT LAUDERDALE",
    "country": "ESTADOS UNIDOS DA AMERICA"
  },
  {
    "code": "KIAD",
    "brazilian": 0,
    "state": "",
    "latitude": 38.94449997,
    "longitude": -77.45580292,
    "name": "WASHINGTON DULLES INTERNATIONAL AIRPORT",
    "city": "WASHINGTON/DULLES INTL",
    "country": "ESTADOS UNIDOS DA AMERICA"
  },
  {
    "code": "KIAH",
    "brazilian": 0,
    "state": "",
    "latitude": 29.984399800000002,
    "longitude": -95.34140015,
    "name": "GEORGE BUSH INTERCONTINENTAL AIRPORT",
    "city": "HOUSTON",
    "country": "ESTADOS UNIDOS DA AMERICA"
  },
  {
    "code": "KJFK",
    "brazilian": 0,
    "state": "",
    "latitude": 40.63980103,
    "longitude": -73.77890015,
    "name": "JOHN F. KENNEDY INTERNATIONAL AIRPORT",
    "city": "NEW YORK",
    "country": "ESTADOS UNIDOS DA AMERICA"
  },
  {
    "code": "KLAX",
    "brazilian": 0,
    "state": "",
    "latitude": 33.94250107,
    "longitude": -118.40799709999999,
    "name": "LOS ANGELES INTERNATIONAL AIRPORT",
    "city": "LOS ANGELES",
    "country": "ESTADOS UNIDOS DA AMERICA"
  },
  {
    "code": "KMCO",
    "brazilian": 0,
    "state": "",
    "latitude": 28.42939949,
    "longitude": -81.30899811,
    "name": "ORLANDO INTERNATIONAL AIRPORT",
    "city": "ORLANDO",
    "country": "ESTADOS UNIDOS DA AMERICA"
  },
  {
    "code": "KMEM",
    "brazilian": 0,
    "state": "",
    "latitude": 35.04240036,
    "longitude": -89.97669983,
    "name": "MEMPHIS INTERNATIONAL AIRPORT",
    "city": "MENPHIS",
    "country": "ESTADOS UNIDOS DA AMERICA"
  },
  {
    "code": "KMIA",
    "brazilian": 0,
    "state": "",
    "latitude": 25.79319954,
    "longitude": -80.29060364,
    "name": "MIAMI INTERNATIONAL AIRPORT",
    "city": "MIAMI",
    "country": "ESTADOS UNIDOS DA AMERICA"
  },
  {
    "code": "KORD",
    "brazilian": 0,
    "state": "",
    "latitude": 41.9786,
    "longitude": -87.9048,
    "name": "OÂ´HARE INTERNATIONAL AIRPORT",
    "city": "CHICAGO",
    "country": "ESTADOS UNIDOS DA AMERICA"
  },
  {
    "code": "LEBL",
    "brazilian": 0,
    "state": "",
    "latitude": 41.2971,
    "longitude": 2.0784599999999998,
    "name": "BARCELONA-EL PRAT AIRPORT",
    "city": "BARCELONA",
    "country": "ESPANHA"
  },
  {
    "code": "LEMD",
    "brazilian": 0,
    "state": "",
    "latitude": 40.471926,
    "longitude": -3.56264,
    "name": "ADOLFO SUÃREZ MADRID-BARAJAS AIRPORT",
    "city": "MADRID",
    "country": "ESPANHA"
  },
  {
    "code": "LFPG",
    "brazilian": 0,
    "state": "",
    "latitude": 49.012798,
    "longitude": 2.55,
    "name": "PARIS-CHARLES DE GAULLE AIRPORT (ROISSY AIRPORT)",
    "city": "PARIS",
    "country": "FRANCA"
  },
  {
    "code": "LIMC",
    "brazilian": 0,
    "state": "",
    "latitude": 45.6306,
    "longitude": 8.728110000000001,
    "name": "MALPENSA INTERNATIONAL AIRPORT",
    "city": "MILAO",
    "country": "ITALIA"
  },
  {
    "code": "LIRF",
    "brazilian": 0,
    "state": "",
    "latitude": 41.800277799999996,
    "longitude": 12.238888900000001,
    "name": "LEONARDO DA VINCI INTERNATIONAL AIRPORT (FIUMICINO INTERNATIONAL AIRPORT)",
    "city": "ROMA",
    "country": "ITALIA"
  },
  {
    "code": "LLBG",
    "brazilian": 0,
    "state": "",
    "latitude": 32.01139832,
    "longitude": 34.88669968,
    "name": "BEN GURION INTERNATIONAL AIRPORT",
    "city": "TEL AVIV",
    "country": "ISRAEL"
  },
  {
    "code": "LPPR",
    "brazilian": 0,
    "state": "",
    "latitude": 41.24810028,
    "longitude": -8.681389809,
    "name": "PORTO",
    "city": "PORTO",
    "country": "PORTUGAL"
  },
  {
    "code": "LPPT",
    "brazilian": 0,
    "state": "",
    "latitude": 38.7813,
    "longitude": -9.13592,
    "name": "LISBOA",
    "city": "LISBOA",
    "country": "PORTUGAL"
  },
  {
    "code": "LSZH",
    "brazilian": 0,
    "state": "",
    "latitude": 47.464698999999996,
    "longitude": 8.54917,
    "name": "ZÃœRICH AIRPORT (KLOTEN AIRPORT)",
    "city": "ZURIQUE",
    "country": "SUÃÃ‡A"
  },
  {
    "code": "LTBA",
    "brazilian": 0,
    "state": "",
    "latitude": 40.976898,
    "longitude": 28.8146,
    "name": "ATATÃœRK INTERNATIONAL AIRPORT",
    "city": "ISTANBUL/ATATURK",
    "country": "TURQUIA"
  },
  {
    "code": "MDPC",
    "brazilian": 0,
    "state": "",
    "latitude": 18.56739998,
    "longitude": -68.36340332,
    "name": "PUNTA CANA",
    "city": "PUNTA CANA",
    "country": "REPUBLICA DOMINICANA"
  },
  {
    "code": "MDSD",
    "brazilian": 0,
    "state": "",
    "latitude": 18.42970085,
    "longitude": -69.66889954,
    "name": "SAO DOMINGO/DE LAS AMERICAS",
    "city": "SAO DOMINGO/DE LAS AMÉRICAS",
    "country": "REPUBLICA DOMINICANA"
  },
  {
    "code": "MMMD",
    "brazilian": 0,
    "state": "",
    "latitude": 20.93700027,
    "longitude": -89.65769959,
    "name": "MERIDA",
    "city": "MERIDA",
    "country": "MEXICO"
  },
  {
    "code": "MMMX",
    "brazilian": 0,
    "state": "",
    "latitude": 19.4363,
    "longitude": -99.072098,
    "name": "BENITO JUAREZ INTL",
    "city": "MEXICO",
    "country": "MEXICO"
  },
  {
    "code": "MMUN",
    "brazilian": 0,
    "state": "",
    "latitude": 21.03650093,
    "longitude": -86.87709808,
    "name": "CANCUN/INTL",
    "city": "CANCUN/INTL",
    "country": "MEXICO"
  },
  {
    "code": "MPTO",
    "brazilian": 0,
    "state": "",
    "latitude": 9.071359634,
    "longitude": -79.38349915,
    "name": "TOCUMEN INTL",
    "city": "PANAMA",
    "country": "PANAMA"
  },
  {
    "code": "MUHA",
    "brazilian": 0,
    "state": "",
    "latitude": 22.98920059,
    "longitude": -82.40910339,
    "name": "HAVANA",
    "city": "HAVANA",
    "country": "CUBA"
  },
  {
    "code": "OMAA",
    "brazilian": 0,
    "state": "",
    "latitude": 24.43300056,
    "longitude": 54.65110016,
    "name": "AB DHABI INTERNATIONAL",
    "city": "AB DHABI INTERNATIONAL",
    "country": "EMIRADOSARABES UNIDOS"
  },
  {
    "code": "OMDB",
    "brazilian": 0,
    "state": "",
    "latitude": 25.25279999,
    "longitude": 55.36439896,
    "name": "DUBAI",
    "city": "DUBAI INTERNATIONAL",
    "country": "EMIRADOSARABES UNIDOS"
  },
  {
    "code": "OTBD",
    "brazilian": 0,
    "state": "",
    "latitude": 25.261101,
    "longitude": 51.565102,
    "name": "DOHA INTERNATIONAL AIRPORT",
    "city": "DOHA",
    "country": "QATAR"
  },
  {
    "code": "OTHH",
    "brazilian": 0,
    "state": "",
    "latitude": 25.273056,
    "longitude": 51.608056,
    "name": "HAMAD INTERNATIONAL AIRPORT",
    "city": "",
    "country": "QATAR"
  },
  {
    "code": "SAAR",
    "brazilian": 0,
    "state": "",
    "latitude": -32.9036,
    "longitude": -60.785,
    "name": "ROSARIO - ISLAS MALVINAS INTERNATIONAL AIRPORT",
    "city": "ROSÁRIO",
    "country": "ARGENTINA"
  },
  {
    "code": "SABE",
    "brazilian": 0,
    "state": "",
    "latitude": -34.5592,
    "longitude": -58.4156,
    "name": "JORGE NEWBERY AIRPORT",
    "city": "BUENOS AIRES/AEROPARQUE",
    "country": "ARGENTINA"
  },
  {
    "code": "SACO",
    "brazilian": 0,
    "state": "",
    "latitude": -31.323601,
    "longitude": -64.208,
    "name": "INGENIERO AMBROSIO L.V. TARAVELLA INTERNATIONAL AIRPORT",
    "city": "CORDOBA",
    "country": "ARGENTINA"
  },
  {
    "code": "SAEZ",
    "brazilian": 0,
    "state": "",
    "latitude": -34.8222,
    "longitude": -58.5358,
    "name": "MINISTRO PISTARINI INTERNATIONAL AIRPORT (EZEIZA INTERNATIONAL AIRPORT)",
    "city": "BUENOS AIRES",
    "country": "ARGENTINA"
  },
  {
    "code": "SAME",
    "brazilian": 0,
    "state": "",
    "latitude": -32.83169937,
    "longitude": -68.79290009,
    "name": "GOVERNOR FRANCISCO GABRIELLI INTERNATIONAL AIRPORT (EL PLUMERILLO INTÂ´L)",
    "city": "MENDOZA",
    "country": "ARGENTINA"
  },
  {
    "code": "SARI",
    "brazilian": 0,
    "state": "",
    "latitude": -25.737301000000002,
    "longitude": -54.4734,
    "name": "CATARATAS DEL IGUAZÃš INTERNATIONAL AIRPORT (IGUAZÃš FALLS)",
    "city": "IGUAZU",
    "country": "ARGENTINA"
  },
  {
    "code": "SAZS",
    "brazilian": 0,
    "state": "",
    "latitude": -41.151199,
    "longitude": -71.157501,
    "name": "SAN CARLOS DE BARILOCHE AIRPORT",
    "city": "SAN CARLOS DE BARILOCHE",
    "country": "ARGENTINA"
  },
  {
    "code": "SBAA",
    "brazilian": 1,
    "state": "PA",
    "latitude": -8.34835,
    "longitude": -49.301498,
    "name": "CONCEIÇÃO DO ARAGUAIA",
    "city": "CONCEIÇÃO DO ARAGUAIA",
    "country": "BRASIL"
  },
  {
    "code": "SBAE",
    "brazilian": 1,
    "state": "SP",
    "latitude": -22.15778,
    "longitude": -49.06833,
    "name": "BAURU/AREALVA",
    "city": "AREALVA",
    "country": "BRASIL"
  },
  {
    "code": "SBAQ",
    "brazilian": 1,
    "state": "SP",
    "latitude": -21.812,
    "longitude": -48.132999,
    "name": "BARTOLOMEU DE GUSMÃO",
    "city": "ARARAQUARA",
    "country": "BRASIL"
  },
  {
    "code": "SBAR",
    "brazilian": 1,
    "state": "SE",
    "latitude": -10.984000000000002,
    "longitude": -37.070301,
    "name": "SANTA MARIA",
    "city": "ARACAJU",
    "country": "BRASIL"
  },
  {
    "code": "SBAS",
    "brazilian": 1,
    "state": "SP",
    "latitude": -22.64,
    "longitude": -50.453056,
    "name": "MARCELO PIRES HALZHAUSEN",
    "city": "ASSIS",
    "country": "BRASIL"
  },
  {
    "code": "SBAT",
    "brazilian": 1,
    "state": "MT",
    "latitude": -9.866389,
    "longitude": -56.106298,
    "name": "DEPUTADO BENEDITO SANTIAGO",
    "city": "ALTA FLORESTA",
    "country": "BRASIL"
  },
  {
    "code": "SBAU",
    "brazilian": 1,
    "state": "SP",
    "latitude": -21.141479,
    "longitude": -50.424575,
    "name": "ESTADUAL DARIO GUARITA",
    "city": "ARAÇATUBA",
    "country": "BRASIL"
  },
  {
    "code": "SBAX",
    "brazilian": 1,
    "state": "MG",
    "latitude": -19.563199996948,
    "longitude": -46.960399627686,
    "name": "ROMEU ZEMA",
    "city": "ARAXÁ",
    "country": "BRASIL"
  },
  {
    "code": "SBBE",
    "brazilian": 1,
    "state": "PA",
    "latitude": -1.3792500495900002,
    "longitude": -48.47629928590001,
    "name": "VAL DE CANS",
    "city": "BELÉM",
    "country": "BRASIL"
  },
  {
    "code": "SBBH",
    "brazilian": 1,
    "state": "MG",
    "latitude": -19.851200103759766,
    "longitude": -43.950599670410156,
    "name": "PAMPULHA - CARLOS DRUMMOND DE ANDRADE",
    "city": "BELO HORIZONTE",
    "country": "BRASIL"
  },
  {
    "code": "SBBQ",
    "brazilian": 1,
    "state": "MG",
    "latitude": -21.2672,
    "longitude": -43.761101,
    "name": "MAJOR BRIGADEIRO DO AR DOORGAL GOMES",
    "city": "BARBACENA",
    "country": "BRASIL"
  },
  {
    "code": "SBBR",
    "brazilian": 1,
    "state": "DF",
    "latitude": -15.869167,
    "longitude": -47.920834,
    "name": "PRESIDENTE JUSCELINO KUBITSCHEK",
    "city": "BRASÍLIA",
    "country": "BRASIL"
  },
  {
    "code": "SBBT",
    "brazilian": 1,
    "state": "SP",
    "latitude": -20.584499359131,
    "longitude": -48.594100952148,
    "name": "CHAFEI AMSEI",
    "city": "BARRETOS",
    "country": "BRASIL"
  },
  {
    "code": "SBBU",
    "brazilian": 1,
    "state": "SP",
    "latitude": -22.344999313400002,
    "longitude": -49.05379867550001,
    "name": "BAURU",
    "city": "BAURU",
    "country": "BRASIL"
  },
  {
    "code": "SBBV",
    "brazilian": 1,
    "state": "RR",
    "latitude": 2.8413889408099995,
    "longitude": -60.69222259520001,
    "name": "ATLAS BRASIL CANTANHEDE",
    "city": "BOA VISTA",
    "country": "BRASIL"
  },
  {
    "code": "SBBW",
    "brazilian": 1,
    "state": "MT",
    "latitude": -15.8613004684,
    "longitude": -52.388900756800005,
    "name": "BARRA DO GARÇAS",
    "city": "BARRA DO GARÇAS",
    "country": "BRASIL"
  },
  {
    "code": "SBCA",
    "brazilian": 1,
    "state": "PR",
    "latitude": -25.0002994537,
    "longitude": -53.5008010864,
    "name": "ADALBERTO MENDES DA SILVA",
    "city": "CASCAVEL",
    "country": "BRASIL"
  },
  {
    "code": "SBCB",
    "brazilian": 1,
    "state": "RJ",
    "latitude": -22.921699523900003,
    "longitude": -42.0742988586,
    "name": "CABO FRIO",
    "city": "CABO FRIO",
    "country": "BRASIL"
  },
  {
    "code": "SBCD",
    "brazilian": 1,
    "state": "SC",
    "latitude": -26.78840065,
    "longitude": -50.9398002625,
    "name": "CARLOS ALBERTO DA COSTA NEVES",
    "city": "CAÇADOR",
    "country": "BRASIL"
  },
  {
    "code": "SBCF",
    "brazilian": 1,
    "state": "MG",
    "latitude": -19.62444305419922,
    "longitude": -43.97194290161133,
    "name": "TANCREDO NEVES",
    "city": "CONFINS",
    "country": "BRASIL"
  },
  {
    "code": "SBCG",
    "brazilian": 1,
    "state": "MS",
    "latitude": -20.468700408900002,
    "longitude": -54.6725006104,
    "name": "CAMPO GRANDE",
    "city": "CAMPO GRANDE",
    "country": "BRASIL"
  },
  {
    "code": "SBCH",
    "brazilian": 1,
    "state": "SC",
    "latitude": -27.134199142456,
    "longitude": -52.656600952148,
    "name": "SERAFIN ENOSS BERTASO",
    "city": "CHAPECÓ",
    "country": "BRASIL"
  },
  {
    "code": "SBCJ",
    "brazilian": 1,
    "state": "PA",
    "latitude": -6.11527776718,
    "longitude": -50.0013885498,
    "name": "CARAJÁS",
    "city": "PARAUAPEBAS",
    "country": "BRASIL"
  },
  {
    "code": "SBCM",
    "brazilian": 1,
    "state": "SC",
    "latitude": -28.724443435700003,
    "longitude": -49.4213905334,
    "name": "DIOMÍCIO FREITAS",
    "city": "FORQUILHINHA",
    "country": "BRASIL"
  },
  {
    "code": "SBCN",
    "brazilian": 1,
    "state": "GO",
    "latitude": -17.725299835205,
    "longitude": -48.607498168945,
    "name": "NELSON RODRIGUES GUIMARÃES",
    "city": "CALDAS NOVAS",
    "country": "BRASIL"
  },
  {
    "code": "SBCP",
    "brazilian": 1,
    "state": "RJ",
    "latitude": -21.698299408,
    "longitude": -41.301700591999996,
    "name": "BARTOLOMEU LISANDRO",
    "city": "CAMPOS DOS GOYTACAZES",
    "country": "BRASIL"
  },
  {
    "code": "SBCR",
    "brazilian": 1,
    "state": "MS",
    "latitude": -19.0119438171,
    "longitude": -57.6713905334,
    "name": "CORUMBÁ",
    "city": "CORUMBÁ",
    "country": "BRASIL"
  },
  {
    "code": "SBCT",
    "brazilian": 1,
    "state": "PR",
    "latitude": -25.5284996033,
    "longitude": -49.175800323500006,
    "name": "AFONSO PENA",
    "city": "SÃO JOSÉ DOS PINHAIS",
    "country": "BRASIL"
  },
  {
    "code": "SBCX",
    "brazilian": 1,
    "state": "RS",
    "latitude": -29.197099685700003,
    "longitude": -51.1875,
    "name": "REGIONAL HUGO CANTERGIANI",
    "city": "CAXIAS DO SUL",
    "country": "BRASIL"
  },
  {
    "code": "SBCY",
    "brazilian": 1,
    "state": "MT",
    "latitude": -15.6528997421,
    "longitude": -56.1166992188,
    "name": "MARECHAL RONDON",
    "city": "VÁRZEA GRANDE",
    "country": "BRASIL"
  },
  {
    "code": "SBCZ",
    "brazilian": 1,
    "state": "AC",
    "latitude": -7.59991,
    "longitude": -72.769501,
    "name": "CRUZEIRO DO SUL",
    "city": "CRUZEIRO DO SUL",
    "country": "BRASIL"
  },
  {
    "code": "SBDB",
    "brazilian": 1,
    "state": "MS",
    "latitude": -21.2473,
    "longitude": -56.4525,
    "name": "BONITO",
    "city": "BONITO",
    "country": "BRASIL"
  },
  {
    "code": "SBDN",
    "brazilian": 1,
    "state": "SP",
    "latitude": -22.1751003265,
    "longitude": -51.4245986938,
    "name": "PRESIDENTE PRUDENTE",
    "city": "PRESIDENTE PRUDENTE",
    "country": "BRASIL"
  },
  {
    "code": "SBDO",
    "brazilian": 1,
    "state": "MS",
    "latitude": -22.2019,
    "longitude": -54.926601,
    "name": "AEROPORTO MUNCIPAL DE DOURADOS",
    "city": "DOURADOS",
    "country": "BRASIL"
  },
  {
    "code": "SBEG",
    "brazilian": 1,
    "state": "AM",
    "latitude": -3.03861,
    "longitude": -60.049702,
    "name": "EDUARDO GOMES",
    "city": "MANAUS",
    "country": "BRASIL"
  },
  {
    "code": "SBFC",
    "brazilian": 1,
    "state": "SP",
    "latitude": -20.592222,
    "longitude": -47.383056,
    "name": "TENENTE LUND PRESETTO",
    "city": "FRANCA",
    "country": "BRASIL"
  },
  {
    "code": "SBFI",
    "brazilian": 1,
    "state": "PR",
    "latitude": -25.60027885437012,
    "longitude": -54.48500061035156,
    "name": "CATARATAS",
    "city": "FOZ DO IGUAÇU",
    "country": "BRASIL"
  },
  {
    "code": "SBFL",
    "brazilian": 1,
    "state": "SC",
    "latitude": -27.670278549194336,
    "longitude": -48.5525016784668,
    "name": "HERCÍLIO LUZ",
    "city": "FLORIANÓPOLIS",
    "country": "BRASIL"
  },
  {
    "code": "SBFN",
    "brazilian": 1,
    "state": "PE",
    "latitude": -3.85493,
    "longitude": -32.423302,
    "name": "FERNANDO DE NORONHA",
    "city": "FERNANDO DE NORONHA",
    "country": "BRASIL"
  },
  {
    "code": "SBFZ",
    "brazilian": 1,
    "state": "CE",
    "latitude": -3.776279926300049,
    "longitude": -38.53260040283203,
    "name": "PINTO MARTINS",
    "city": "FORTALEZA",
    "country": "BRASIL"
  },
  {
    "code": "SBGL",
    "brazilian": 1,
    "state": "RJ",
    "latitude": -22.809999465900002,
    "longitude": -43.2505569458,
    "name": "AEROPORTO INTERNACIONAL DO RIO DE JANEIRO/GALEÃO – ANTONIO CARLOS JOBIM",
    "city": "RIO DE JANEIRO",
    "country": "BRASIL"
  },
  {
    "code": "SBGM",
    "brazilian": 1,
    "state": "RO",
    "latitude": -10.786399841308594,
    "longitude": -65.28479766845703,
    "name": "GUAJARÁ-MIRIM",
    "city": "GUAJARÁ-MIRIM",
    "country": "BRASIL"
  },
  {
    "code": "SBGO",
    "brazilian": 1,
    "state": "GO",
    "latitude": -16.631999969482422,
    "longitude": -49.22069931030274,
    "name": "SANTA GENOVEVA",
    "city": "GOIÂNIA",
    "country": "BRASIL"
  },
  {
    "code": "SBGR",
    "brazilian": 1,
    "state": "SP",
    "latitude": -23.435556411743164,
    "longitude": -46.47305679321289,
    "name": "GUARULHOS - GOVERNADOR ANDRÉ FRANCO MONTORO",
    "city": "GUARULHOS",
    "country": "BRASIL"
  },
  {
    "code": "SBGV",
    "brazilian": 1,
    "state": "MG",
    "latitude": -18.89520072937,
    "longitude": -41.982200622559,
    "name": "CORONEL ALTINO MACHADO",
    "city": "GOVERNADOR VALADARES",
    "country": "BRASIL"
  },
  {
    "code": "SBHT",
    "brazilian": 1,
    "state": "PA",
    "latitude": -3.2539100646973,
    "longitude": -52.254001617432,
    "name": "ALTAMIRA",
    "city": "ALTAMIRA",
    "country": "BRASIL"
  },
  {
    "code": "SBIH",
    "brazilian": 1,
    "state": "PA",
    "latitude": -4.2423400878906,
    "longitude": -56.000701904296996,
    "name": "ITAITUBA",
    "city": "ITAITUBA",
    "country": "BRASIL"
  },
  {
    "code": "SBIL",
    "brazilian": 1,
    "state": "BA",
    "latitude": -14.815999984741001,
    "longitude": -39.033199310303004,
    "name": "BAHIA - JORGE AMADO",
    "city": "ILHÉUS",
    "country": "BRASIL"
  },
  {
    "code": "SBIP",
    "brazilian": 1,
    "state": "MG",
    "latitude": -19.470699310302997,
    "longitude": -42.487598419189,
    "name": "USIMINAS",
    "city": "SANTANA DO PARAÍSO",
    "country": "BRASIL"
  },
  {
    "code": "SBIZ",
    "brazilian": 1,
    "state": "MA",
    "latitude": -5.53129,
    "longitude": -47.459999,
    "name": "PREFEITO RENATO MOREIRA",
    "city": "IMPERATRIZ",
    "country": "BRASIL"
  },
  {
    "code": "SBJA",
    "brazilian": 1,
    "state": "SC",
    "latitude": -28.6753,
    "longitude": -49.0596,
    "name": "REGIONAL SUL",
    "city": "JAGUARUNA",
    "country": "BRASIL"
  },
  {
    "code": "SBJE",
    "brazilian": 1,
    "state": "CE",
    "latitude": -2.906425,
    "longitude": -40.357338,
    "name": "COMTE. ARISTON PESSOA REGIONAL AIRPORT",
    "city": "CRUZ",
    "country": "BRASIL"
  },
  {
    "code": "SBJF",
    "brazilian": 1,
    "state": "MG",
    "latitude": -21.791500091552734,
    "longitude": -43.38679885864258,
    "name": "FRANCISCO DE ASSIS",
    "city": "JUIZ DE FORA",
    "country": "BRASIL"
  },
  {
    "code": "SBJI",
    "brazilian": 1,
    "state": "RO",
    "latitude": -10.870800018299999,
    "longitude": -61.8465003967,
    "name": "JI-PARANÁ",
    "city": "JI-PARANÁ",
    "country": "BRASIL"
  },
  {
    "code": "SBJP",
    "brazilian": 1,
    "state": "PB",
    "latitude": -7.145833015440003,
    "longitude": -34.9486122131,
    "name": "PRESIDENTE CASTRO PINTO",
    "city": "BAYEUX",
    "country": "BRASIL"
  },
  {
    "code": "SBJR",
    "brazilian": 1,
    "state": "RJ",
    "latitude": -22.986773,
    "longitude": -43.372194,
    "name": "JACAREPAGUÁ/RJ - ROBERTO MARINHO",
    "city": "RIO DE JANEIRO",
    "country": "BRASIL"
  },
  {
    "code": "SBJU",
    "brazilian": 1,
    "state": "CE",
    "latitude": -7.21895980835,
    "longitude": -39.270099639899996,
    "name": "ORLANDO BEZERRA DE MENEZES",
    "city": "JUAZEIRO DO NORTE",
    "country": "BRASIL"
  },
  {
    "code": "SBJV",
    "brazilian": 1,
    "state": "SC",
    "latitude": -26.22450065612793,
    "longitude": -48.797401428222656,
    "name": "LAURO CARNEIRO DE LOYOLA",
    "city": "JOINVILLE",
    "country": "BRASIL"
  },
  {
    "code": "SBKG",
    "brazilian": 1,
    "state": "PB",
    "latitude": -7.26992,
    "longitude": -35.8964,
    "name": "PRESIDENTE JOÃO SUASSUNA",
    "city": "CAMPINA GRANDE",
    "country": "BRASIL"
  },
  {
    "code": "SBKP",
    "brazilian": 1,
    "state": "SP",
    "latitude": -23.0074005127,
    "longitude": -47.1344985962,
    "name": "VIRACOPOS",
    "city": "CAMPINAS",
    "country": "BRASIL"
  },
  {
    "code": "SBLE",
    "brazilian": 1,
    "state": "BA",
    "latitude": -12.4822998047,
    "longitude": -41.2770004272,
    "name": "HORÁCIO DE MATTOS",
    "city": "LENÇÓIS",
    "country": "BRASIL"
  },
  {
    "code": "SBLJ",
    "brazilian": 1,
    "state": "SC",
    "latitude": -27.7821006775,
    "longitude": -50.28150177,
    "name": "CORREIA PINTO",
    "city": "LAGES",
    "country": "BRASIL"
  },
  {
    "code": "SBLO",
    "brazilian": 1,
    "state": "PR",
    "latitude": -23.3335990906,
    "longitude": -51.1301002502,
    "name": "GOVERNADOR JOSÉ RICHA",
    "city": "LONDRINA",
    "country": "BRASIL"
  },
  {
    "code": "SBLP",
    "brazilian": 1,
    "state": "BA",
    "latitude": -13.2621002197,
    "longitude": -43.4081001282,
    "name": "BOM JESUS DA LAPA",
    "city": "BOM JESUS DA LAPA",
    "country": "BRASIL"
  },
  {
    "code": "SBMA",
    "brazilian": 1,
    "state": "PA",
    "latitude": -5.36858987808,
    "longitude": -49.1380004883,
    "name": "MARABÁ",
    "city": "MARABÁ",
    "country": "BRASIL"
  },
  {
    "code": "SBMC",
    "brazilian": 1,
    "state": "GO",
    "latitude": -13.5491,
    "longitude": -48.195301,
    "name": "MINAÇU",
    "city": "MINAÇU",
    "country": "BRASIL"
  },
  {
    "code": "SBMD",
    "brazilian": 1,
    "state": "PA",
    "latitude": -0.8898389999999999,
    "longitude": -52.6022,
    "name": "MONTE DOURADO",
    "city": "ALMEIRIM",
    "country": "BRASIL"
  },
  {
    "code": "SBME",
    "brazilian": 1,
    "state": "RJ",
    "latitude": -22.343000412,
    "longitude": -41.7659988403,
    "name": "MACAÉ",
    "city": "MACAÉ",
    "country": "BRASIL"
  },
  {
    "code": "SBMG",
    "brazilian": 1,
    "state": "PR",
    "latitude": -23.479444,
    "longitude": -52.012222,
    "name": "REGIONAL DE MARINGÁ - SÍLVIO NAME JÚNIOR",
    "city": "MARINGÁ",
    "country": "BRASIL"
  },
  {
    "code": "SBMG",
    "brazilian": 1,
    "state": "PR",
    "latitude": -23.47606,
    "longitude": -52.016187,
    "name": "REGIONAL DE MARINGÁ - SÍLVIO NAME JÚNIOR",
    "city": "MARINGÁ",
    "country": "BRASIL"
  },
  {
    "code": "SBMH",
    "brazilian": 1,
    "state": "PR",
    "latitude": -23.479444,
    "longitude": -52.012222,
    "name": "MARINGÁ",
    "city": "MARINGÁ",
    "country": "BRASIL"
  },
  {
    "code": "SBMK",
    "brazilian": 1,
    "state": "MG",
    "latitude": -16.706899642899998,
    "longitude": -43.818901061999995,
    "name": "MÁRIO RIBEIRO",
    "city": "MONTES CLAROS",
    "country": "BRASIL"
  },
  {
    "code": "SBML",
    "brazilian": 1,
    "state": "SP",
    "latitude": -22.1968994141,
    "longitude": -49.926399231000005,
    "name": "FRANK MILOYE MILENKOVICH",
    "city": "MARÍLIA",
    "country": "BRASIL"
  },
  {
    "code": "SBMO",
    "brazilian": 1,
    "state": "AL",
    "latitude": -9.510809898376463,
    "longitude": -35.79169845581055,
    "name": "ZUMBI DOS PALMARES",
    "city": "RIO LARGO",
    "country": "BRASIL"
  },
  {
    "code": "SBMQ",
    "brazilian": 1,
    "state": "AP",
    "latitude": 0.0506640002131,
    "longitude": -51.0722007751,
    "name": "MACAPÁ",
    "city": "MACAPÁ",
    "country": "BRASIL"
  },
  {
    "code": "SBMS",
    "brazilian": 1,
    "state": "RN",
    "latitude": -5.2019200325,
    "longitude": -37.3642997742,
    "name": "DIX-SEPT ROSADO",
    "city": "MOSSORÓ",
    "country": "BRASIL"
  },
  {
    "code": "SBMY",
    "brazilian": 1,
    "state": "AM",
    "latitude": -5.8113799095154,
    "longitude": -61.278301239014,
    "name": "MANICORÉ",
    "city": "MANICORÉ",
    "country": "BRASIL"
  },
  {
    "code": "SBNF",
    "brazilian": 1,
    "state": "SC",
    "latitude": -26.879999,
    "longitude": -48.651402,
    "name": "MINISTRO VICTOR KONDER",
    "city": "NAVEGANTES",
    "country": "BRASIL"
  },
  {
    "code": "SBNM",
    "brazilian": 1,
    "state": "RS",
    "latitude": -28.2817,
    "longitude": -54.169102,
    "name": "SANTO ÂNGELO",
    "city": "SANTO ÂNGELO",
    "country": "BRASIL"
  },
  {
    "code": "SBNT",
    "brazilian": 1,
    "state": "RN",
    "latitude": -5.91142,
    "longitude": -35.2477,
    "name": "AUGUSTO SEVERO",
    "city": "PARNAMIRIM",
    "country": "BRASIL"
  },
  {
    "code": "SBOI",
    "brazilian": 1,
    "state": "AP",
    "latitude": 3.85548996925354,
    "longitude": -51.79690170288086,
    "name": "OIAPOQUE",
    "city": "OIAPOQUE",
    "country": "BRASIL"
  },
  {
    "code": "SBPA",
    "brazilian": 1,
    "state": "RS",
    "latitude": -29.994400024414066,
    "longitude": -51.1713981628418,
    "name": "SALGADO FILHO",
    "city": "PORTO ALEGRE",
    "country": "BRASIL"
  },
  {
    "code": "SBPB",
    "brazilian": 1,
    "state": "PI",
    "latitude": -2.89374995232,
    "longitude": -41.73199844359999,
    "name": "PREFEITO DOUTOR JOÃO SILVA FILHO",
    "city": "PARNAÍBA",
    "country": "BRASIL"
  },
  {
    "code": "SBPF",
    "brazilian": 1,
    "state": "RS",
    "latitude": -28.243999,
    "longitude": -52.326599,
    "name": "LAURO KURTZ",
    "city": "PASSO FUNDO",
    "country": "BRASIL"
  },
  {
    "code": "SBPJ",
    "brazilian": 1,
    "state": "TO",
    "latitude": -10.2915000916,
    "longitude": -48.3569984436,
    "name": "BRIGADEIRO LYSIAS RODRIGUES",
    "city": "PALMAS",
    "country": "BRASIL"
  },
  {
    "code": "SBPK",
    "brazilian": 1,
    "state": "RS",
    "latitude": -31.718399,
    "longitude": -52.327702,
    "name": "PELOTAS",
    "city": "PELOTAS",
    "country": "BRASIL"
  },
  {
    "code": "SBPL",
    "brazilian": 1,
    "state": "PE",
    "latitude": -9.362409591674805,
    "longitude": -40.56909942626953,
    "name": "SENADOR NILO COELHO",
    "city": "PETROLINA",
    "country": "BRASIL"
  },
  {
    "code": "SBPM",
    "brazilian": 1,
    "state": "TO",
    "latitude": -10.29,
    "longitude": -48.357778,
    "name": "PALMAS",
    "city": "PALMAS",
    "country": "BRASIL"
  },
  {
    "code": "SBPP",
    "brazilian": 1,
    "state": "MS",
    "latitude": -22.54960060119629,
    "longitude": -55.702598571777344,
    "name": "PONTA PORÃ",
    "city": "PONTA PORÃ",
    "country": "BRASIL"
  },
  {
    "code": "SBPS",
    "brazilian": 1,
    "state": "BA",
    "latitude": -16.438601000000002,
    "longitude": -39.080898,
    "name": "PORTO SEGURO",
    "city": "PORTO SEGURO",
    "country": "BRASIL"
  },
  {
    "code": "SBPV",
    "brazilian": 1,
    "state": "RO",
    "latitude": -8.70928955078125,
    "longitude": -63.90230178833008,
    "name": "GOVERNADOR JORGE TEIXEIRA DE OLIVEIRA",
    "city": "PORTO VELHO",
    "country": "BRASIL"
  },
  {
    "code": "SBQV",
    "brazilian": 1,
    "state": "BA",
    "latitude": -14.8628,
    "longitude": -40.863098,
    "name": "VITÓRIA DA CONQUISTA",
    "city": "VITÓRIA DA CONQUISTA",
    "country": "BRASIL"
  },
  {
    "code": "SBRB",
    "brazilian": 1,
    "state": "AC",
    "latitude": -9.869031,
    "longitude": -67.893984,
    "name": "PLÁCIDO DE CASTRO",
    "city": "SENA MADUREIRA",
    "country": "BRASIL"
  },
  {
    "code": "SBRD",
    "brazilian": 1,
    "state": "MT",
    "latitude": -16.586,
    "longitude": -54.7248,
    "name": "RONDONÓPOLIS",
    "city": "RONDONÓPOLIS",
    "country": "BRASIL"
  },
  {
    "code": "SBRF",
    "brazilian": 1,
    "state": "PE",
    "latitude": -8.126489639282228,
    "longitude": -34.923599243164055,
    "name": "GUARARAPES - GILBERTO FREYRE",
    "city": "RECIFE",
    "country": "BRASIL"
  },
  {
    "code": "SBRG",
    "brazilian": 1,
    "state": "RS",
    "latitude": -32.081667,
    "longitude": -52.163333,
    "name": "RIO GRANDE",
    "city": "RIO GRANDE",
    "country": "BRASIL"
  },
  {
    "code": "SBRJ",
    "brazilian": 1,
    "state": "RJ",
    "latitude": -22.910499572800003,
    "longitude": -43.1631011963,
    "name": "SANTOS DUMONT",
    "city": "RIO DE JANEIRO",
    "country": "BRASIL"
  },
  {
    "code": "SBRP",
    "brazilian": 1,
    "state": "SP",
    "latitude": -21.136388778686523,
    "longitude": -47.77666854858398,
    "name": "LEITE LOPES",
    "city": "RIBEIRÃO PRETO",
    "country": "BRASIL"
  },
  {
    "code": "SBSG",
    "brazilian": 1,
    "state": "RN",
    "latitude": -5.768056,
    "longitude": -35.376111,
    "name": "SÃO GONÇALO DO AMARANTE",
    "city": "SÃO GONÇALO DO AMARANTE",
    "country": "BRASIL"
  },
  {
    "code": "SBSI",
    "brazilian": 1,
    "state": "MT",
    "latitude": -11.885001,
    "longitude": -55.58610899999999,
    "name": "PRESIDENTE JOAO FIGUEIREDO AIRPORT",
    "city": "SINOP",
    "country": "BRASIL"
  },
  {
    "code": "SBSJ",
    "brazilian": 1,
    "state": "SP",
    "latitude": -23.22920036315918,
    "longitude": -45.86149978637695,
    "name": "PROFESSOR URBANO ERNESTO STUMPF",
    "city": "SÃO JOSÉ DOS CAMPOS",
    "country": "BRASIL"
  },
  {
    "code": "SBSL",
    "brazilian": 1,
    "state": "MA",
    "latitude": -2.585360050201416,
    "longitude": -44.23410034179688,
    "name": "MARECHAL CUNHA MACHADO",
    "city": "SÃO LUÍS",
    "country": "BRASIL"
  },
  {
    "code": "SBSM",
    "brazilian": 1,
    "state": "RS",
    "latitude": -29.711399,
    "longitude": -53.688202,
    "name": "SANTA MARIA",
    "city": "SANTA MARIA",
    "country": "BRASIL"
  },
  {
    "code": "SBSN",
    "brazilian": 1,
    "state": "PA",
    "latitude": -2.4247219562530518,
    "longitude": -54.78583145141602,
    "name": "MAESTRO WILSON FONSECA",
    "city": "SANTARÉM",
    "country": "BRASIL"
  },
  {
    "code": "SBSO",
    "brazilian": 1,
    "state": "MT",
    "latitude": -12.479177,
    "longitude": -55.672341,
    "name": "SORRISO AIRPORT",
    "city": "SORRISO",
    "country": "BRASIL"
  },
  {
    "code": "SBSP",
    "brazilian": 1,
    "state": "SP",
    "latitude": -23.626110076904297,
    "longitude": -46.65638732910156,
    "name": "CONGONHAS",
    "city": "SÃO PAULO",
    "country": "BRASIL"
  },
  {
    "code": "SBSR",
    "brazilian": 1,
    "state": "SP",
    "latitude": -20.8166007996,
    "longitude": -49.40650177,
    "name": "PROFESSOR ERIBERTO MANOEL REINO",
    "city": "SÃO JOSÉ DO RIO PRETO",
    "country": "BRASIL"
  },
  {
    "code": "SBSV",
    "brazilian": 1,
    "state": "BA",
    "latitude": -12.9086112976,
    "longitude": -38.3224983215,
    "name": "DEPUTADO LUÍS EDUARDO MAGALHÃES",
    "city": "SALVADOR",
    "country": "BRASIL"
  },
  {
    "code": "SBTB",
    "brazilian": 1,
    "state": "PA",
    "latitude": -1.489599943161,
    "longitude": -56.396800994873,
    "name": "TROMBETAS",
    "city": "ORIXIMINÁ",
    "country": "BRASIL"
  },
  {
    "code": "SBTC",
    "brazilian": 1,
    "state": "BA",
    "latitude": -15.3551998138,
    "longitude": -38.9990005493,
    "name": "HOTEL TRANSAMÉRICA",
    "city": "UNA",
    "country": "BRASIL"
  },
  {
    "code": "SBTD",
    "brazilian": 1,
    "state": "PR",
    "latitude": -24.6863,
    "longitude": -53.697498,
    "name": "LUÍS DAL CANALLE FILHO",
    "city": "TOLEDO",
    "country": "BRASIL"
  },
  {
    "code": "SBTE",
    "brazilian": 1,
    "state": "PI",
    "latitude": -5.0599398613,
    "longitude": -42.8235015869,
    "name": "SENADOR PETRÔNIO PORTELLA",
    "city": "TERESINA",
    "country": "BRASIL"
  },
  {
    "code": "SBTF",
    "brazilian": 1,
    "state": "AM",
    "latitude": -3.38294005394,
    "longitude": -64.7240982056,
    "name": "TEFÉ",
    "city": "TEFÉ",
    "country": "BRASIL"
  },
  {
    "code": "SBTG",
    "brazilian": 1,
    "state": "MS",
    "latitude": -20.754199981689,
    "longitude": -51.68420028686499,
    "name": "AEROPORTO REGIONAL PLÍNIO ALARCON",
    "city": "TRÊS LAGOAS",
    "country": "BRASIL"
  },
  {
    "code": "SBTK",
    "brazilian": 1,
    "state": "AC",
    "latitude": -8.1552600860596,
    "longitude": -70.783302307129,
    "name": "TARAUACÁ",
    "city": "TARAUACÁ",
    "country": "BRASIL"
  },
  {
    "code": "SBTT",
    "brazilian": 1,
    "state": "AM",
    "latitude": -4.2556700706482,
    "longitude": -69.93579864502,
    "name": "TABATINGA",
    "city": "TABATINGA",
    "country": "BRASIL"
  },
  {
    "code": "SBTU",
    "brazilian": 1,
    "state": "PA",
    "latitude": -3.7860100269318,
    "longitude": -49.72029876709001,
    "name": "TUCURUÍ",
    "city": "TUCURUÍ",
    "country": "BRASIL"
  },
  {
    "code": "SBUA",
    "brazilian": 1,
    "state": "AM",
    "latitude": -0.14835,
    "longitude": -66.9855,
    "name": "SÃO GABRIEL DA CACHOEIRA",
    "city": "SÃO GABRIEL DA CACHOEIRA",
    "country": "BRASIL"
  },
  {
    "code": "SBUF",
    "brazilian": 1,
    "state": "BA",
    "latitude": -9.4008798599243,
    "longitude": -38.250598907471,
    "name": "PAULO AFONSO",
    "city": "PAULO AFONSO",
    "country": "BRASIL"
  },
  {
    "code": "SBUG",
    "brazilian": 1,
    "state": "RS",
    "latitude": -29.782199859600002,
    "longitude": -57.0382003784,
    "name": "RUBEM BERTA",
    "city": "URUGUAIANA",
    "country": "BRASIL"
  },
  {
    "code": "SBUL",
    "brazilian": 1,
    "state": "MG",
    "latitude": -18.883612,
    "longitude": -48.225277,
    "name": "TENENTE-CORONEL AVIADOR CÉSAR BOMBONATO",
    "city": "UBERLÂNDIA",
    "country": "BRASIL"
  },
  {
    "code": "SBUR",
    "brazilian": 1,
    "state": "MG",
    "latitude": -19.764722824097,
    "longitude": -47.966110229491996,
    "name": "MÁRIO DE ALMEIDA FRANCO",
    "city": "UBERABA",
    "country": "BRASIL"
  },
  {
    "code": "SBUY",
    "brazilian": 1,
    "state": "AM",
    "latitude": -4.88422012329,
    "longitude": -65.3554000854,
    "name": "URUCU",
    "city": "COARI",
    "country": "BRASIL"
  },
  {
    "code": "SBVC",
    "brazilian": 1,
    "state": "BA",
    "latitude": -14.907885,
    "longitude": -40.914804,
    "name": "GLAUBER ROCHA AIRPORT",
    "city": "VITORIA DA CONQUISTA",
    "country": "BRASIL"
  },
  {
    "code": "SBVG",
    "brazilian": 1,
    "state": "MG",
    "latitude": -21.5900993347,
    "longitude": -45.473300933800004,
    "name": "MAJOR BRIGADEIRO TROMPOWSKY",
    "city": "VARGINHA",
    "country": "BRASIL"
  },
  {
    "code": "SBVH",
    "brazilian": 1,
    "state": "RO",
    "latitude": -12.694399833678998,
    "longitude": -60.098300933838,
    "name": "BRIGADEIRO CAMARÃO",
    "city": "VILHENA",
    "country": "BRASIL"
  },
  {
    "code": "SBVT",
    "brazilian": 1,
    "state": "ES",
    "latitude": -20.258057,
    "longitude": -40.286388,
    "name": "EURICO DE AGUIAR SALLES",
    "city": "VITÓRIA",
    "country": "BRASIL"
  },
  {
    "code": "SBZM",
    "brazilian": 1,
    "state": "MG",
    "latitude": -21.513086,
    "longitude": -43.173069,
    "name": "REGIONAL DA ZONA DA MATA",
    "city": "GOIANÁ",
    "country": "BRASIL"
  },
  {
    "code": "SCDA",
    "brazilian": 0,
    "state": "",
    "latitude": -20.53520012,
    "longitude": -70.1812973,
    "name": "DIEGO ARACENA INTERNATIONAL AIRPORT",
    "city": "IQUIQUE",
    "country": "CHILE"
  },
  {
    "code": "SCEL",
    "brazilian": 0,
    "state": "",
    "latitude": -33.39300156,
    "longitude": -70.78579712,
    "name": "COMODORO ARTURO MERINO BENÃTEZ INTERNATIONAL AIRPORT",
    "city": "SANTIAGO DO CHILE",
    "country": "CHILE"
  },
  {
    "code": "SDAM",
    "brazilian": 1,
    "state": "SP",
    "latitude": -22.85919952392578,
    "longitude": -47.10820007324219,
    "name": "AMARAIS",
    "city": "CAMPINAS",
    "country": "BRASIL"
  },
  {
    "code": "SDCG",
    "brazilian": 1,
    "state": "AM",
    "latitude": -3.46792950765,
    "longitude": -68.9204120636,
    "name": "SENADORA EUNICE MICHILES",
    "city": "SÃO PAULO DE OLIVENÇA",
    "country": "BRASIL"
  },
  {
    "code": "SDCO",
    "brazilian": 1,
    "state": "SP",
    "latitude": -23.478001000000006,
    "longitude": -47.490002,
    "name": "SOROCABA",
    "city": "SOROCABA",
    "country": "BRASIL"
  },
  {
    "code": "SDOW",
    "brazilian": 1,
    "state": "PA",
    "latitude": -6.763100147250001,
    "longitude": -51.0499000549,
    "name": "OURILÂNDIA DO NORTE",
    "city": "OURILÂNDIA DO NORTE",
    "country": "BRASIL"
  },
  {
    "code": "SDRS",
    "brazilian": 1,
    "state": "RJ",
    "latitude": -22.4785003662,
    "longitude": -44.4803009033,
    "name": "RESENDE",
    "city": "RESENDE",
    "country": "BRASIL"
  },
  {
    "code": "SDSC",
    "brazilian": 1,
    "state": "SP",
    "latitude": -21.875401,
    "longitude": -47.903703,
    "name": "MÁRIO PEREIRA LOPES",
    "city": "SÃO CARLOS",
    "country": "BRASIL"
  },
  {
    "code": "SEGU",
    "brazilian": 0,
    "state": "",
    "latitude": -2.15741992,
    "longitude": -79.88359833,
    "name": "JOSE  JOAQUIN DE OLMEDO INTERNATIONAL AIRPORT",
    "city": "GUAYAQUIL",
    "country": "EQUADOR"
  },
  {
    "code": "SEQM",
    "brazilian": 0,
    "state": "",
    "latitude": -0.12916666699999999,
    "longitude": -78.3575,
    "name": "MARISCAL SUCRE INTERNATIONAL AIRPORT",
    "city": "TABABELA",
    "country": "EQUADOR"
  },
  {
    "code": "SEQU",
    "brazilian": 0,
    "state": "",
    "latitude": -0.141144007444,
    "longitude": -78.4881973267,
    "name": "QUITO",
    "city": "QUITO",
    "country": "EQUADOR"
  },
  {
    "code": "SGAS",
    "brazilian": 0,
    "state": "",
    "latitude": -25.23999977,
    "longitude": -57.52000046,
    "name": "SILVIO PETTIROSSI INTERNATIONAL AIRPORT",
    "city": "ASSUNCAO",
    "country": "PARAGUAI"
  },
  {
    "code": "SGES",
    "brazilian": 0,
    "state": "",
    "latitude": -25.454516,
    "longitude": -54.842681999999996,
    "name": "GUARANI INTERNATIONAL AIRPORT",
    "city": "CIDADE DEL ESTE",
    "country": "PARAGUAI"
  },
  {
    "code": "SILC",
    "brazilian": 1,
    "state": "MT",
    "latitude": -13.037861,
    "longitude": -55.95025,
    "name": "LUCAS DO RIO VERDE",
    "city": "LUCAS DO RIO VERDE",
    "country": "BRASIL"
  },
  {
    "code": "SIMK",
    "brazilian": 1,
    "state": "SP",
    "latitude": -20.592199,
    "longitude": -47.3829,
    "name": "TENENTE LUND PRESETTO",
    "city": "FRANCA",
    "country": "BRASIL"
  },
  {
    "code": "SIZX",
    "brazilian": 1,
    "state": "MT",
    "latitude": -11.2966,
    "longitude": -57.5495,
    "name": "JUARA SUL",
    "city": "JUARA",
    "country": "BRASIL"
  },
  {
    "code": "SJHG",
    "brazilian": 1,
    "state": "MT",
    "latitude": -10.634400367736816,
    "longitude": -51.5635986328125,
    "name": "CONFRESA",
    "city": "CONFRESA",
    "country": "BRASIL"
  },
  {
    "code": "SJNP",
    "brazilian": 1,
    "state": "PA",
    "latitude": -7.125833,
    "longitude": -55.400833,
    "name": "NOVO PROGRESSO",
    "city": "NOVO PROGRESSO",
    "country": "BRASIL"
  },
  {
    "code": "SJRG",
    "brazilian": 1,
    "state": "RS",
    "latitude": -32.083065000000005,
    "longitude": -52.167184000000006,
    "name": "RIO GRANDE",
    "city": "RIO GRANDE",
    "country": "BRASIL"
  },
  {
    "code": "SJTC",
    "brazilian": 1,
    "state": "SP",
    "latitude": -22.1668591409,
    "longitude": -49.0502866745,
    "name": "MOUSSA NAKHL TOBIAS",
    "city": "AREALVA",
    "country": "BRASIL"
  },
  {
    "code": "SKBO",
    "brazilian": 0,
    "state": "",
    "latitude": 4.70159,
    "longitude": -74.1469,
    "name": "EL DORADO INTERNATIONAL AIRPORT",
    "city": "BOGOTA",
    "country": "COLOMBIA"
  },
  {
    "code": "SKRG",
    "brazilian": 0,
    "state": "",
    "latitude": 6.1645400000000015,
    "longitude": -75.4231,
    "name": "JOSÃ‰ MARÃA CÃ“RDOVA INTERNATIONAL AIRPORT",
    "city": "RIO NEGRO/JOSE MARIA CORDOV",
    "country": "COLOMBIA"
  },
  {
    "code": "SLCB",
    "brazilian": 0,
    "state": "",
    "latitude": -17.42110062,
    "longitude": -66.17710114,
    "name": "JORGE WILSTERMANN INTERNATIONAL AIRPORT",
    "city": "COCHABAMBA",
    "country": "BOLIVIA"
  },
  {
    "code": "SLVR",
    "brazilian": 0,
    "state": "",
    "latitude": -17.6448,
    "longitude": -63.135399,
    "name": "VIRU VIRU INTERNATIONAL AIRPORT",
    "city": "VIRU VIRU",
    "country": "BOLIVIA"
  },
  {
    "code": "SMJP",
    "brazilian": 0,
    "state": "",
    "latitude": 5.4528298379999995,
    "longitude": -55.18780136,
    "name": "JOHAN ADOLF PENGEL INTERNATIONAL AIRPORT (ZANDERIJ INTÂ´L)",
    "city": "ZANDERY",
    "country": "SURINAME"
  },
  {
    "code": "SNBI",
    "brazilian": 1,
    "state": "MA",
    "latitude": -4.227709770202637,
    "longitude": -44.81999969482422,
    "name": "BACABAL",
    "city": "BACABAL",
    "country": "BRASIL"
  },
  {
    "code": "SNBR",
    "brazilian": 1,
    "state": "BA",
    "latitude": -12.078900337219238,
    "longitude": -45.00899887084961,
    "name": "BARREIRAS",
    "city": "BARREIRAS",
    "country": "BRASIL"
  },
  {
    "code": "SNBS",
    "brazilian": 1,
    "state": "MA",
    "latitude": -7.52603006362915,
    "longitude": -46.05329895019531,
    "name": "BALSAS",
    "city": "BALSAS",
    "country": "BRASIL"
  },
  {
    "code": "SNDB",
    "brazilian": 1,
    "state": "PA",
    "latitude": -4.0855560302734375,
    "longitude": -54.91083145141602,
    "name": "RURÓPOLIS",
    "city": "RURÓPOLIS",
    "country": "BRASIL"
  },
  {
    "code": "SNDC",
    "brazilian": 1,
    "state": "PA",
    "latitude": -8.033289909362793,
    "longitude": -49.97990036010742,
    "name": "REDENÇÃO",
    "city": "REDENÇÃO",
    "country": "BRASIL"
  },
  {
    "code": "SNDM",
    "brazilian": 1,
    "state": "SP",
    "latitude": -23.4404,
    "longitude": -46.4352,
    "name": "CHAPADA DIAMANTINA",
    "city": "LENÇÓIS",
    "country": "BRASIL"
  },
  {
    "code": "SNDT",
    "brazilian": 1,
    "state": "MG",
    "latitude": -18.232000351,
    "longitude": -43.650398254399995,
    "name": "DIAMANTINA",
    "city": "DIAMANTINA",
    "country": "BRASIL"
  },
  {
    "code": "SNDV",
    "brazilian": 1,
    "state": "MG",
    "latitude": -20.180700302124,
    "longitude": -44.870899200439,
    "name": "BRIGADEIRO CABRAL",
    "city": "DIVINÓPOLIS",
    "country": "BRASIL"
  },
  {
    "code": "SNFX",
    "brazilian": 1,
    "state": "PA",
    "latitude": -6.6413,
    "longitude": -51.9523,
    "name": "SÃO FÉLIX DO XINGU",
    "city": "SÃO FÉLIX DO XINGU",
    "country": "BRASIL"
  },
  {
    "code": "SNGI",
    "brazilian": 1,
    "state": "BA",
    "latitude": -14.208200454711914,
    "longitude": -42.74610137939453,
    "name": "GUANAMBI",
    "city": "GUANAMBI",
    "country": "BRASIL"
  },
  {
    "code": "SNGV",
    "brazilian": 1,
    "state": "MT",
    "latitude": -12.721846,
    "longitude": -52.38028,
    "name": "GOVERNADOR VALADARES",
    "city": "GOVERNADOR VALADARES",
    "country": "BRASIL"
  },
  {
    "code": "SNIG",
    "brazilian": 1,
    "state": "CE",
    "latitude": -6.346640110015869,
    "longitude": -39.293800354003906,
    "name": "IGUATU",
    "city": "IGUATU",
    "country": "BRASIL"
  },
  {
    "code": "SNJR",
    "brazilian": 1,
    "state": "MG",
    "latitude": -21.0849990845,
    "longitude": -44.2247238159,
    "name": "SÃO JOÃO DEL REI",
    "city": "SÃO JOÃO DEL REI",
    "country": "BRASIL"
  },
  {
    "code": "SNKE",
    "brazilian": 1,
    "state": "PA",
    "latitude": -9.31997013092041,
    "longitude": -50.32849884033203,
    "name": "SANTANA DO ARAGUAIA",
    "city": "SANTANA DO ARAGUAIA",
    "country": "BRASIL"
  },
  {
    "code": "SNMA",
    "brazilian": 1,
    "state": "PA",
    "latitude": -1.9958000183105469,
    "longitude": -54.07419967651367,
    "name": "MONTE ALEGRE",
    "city": "MONTE ALEGRE",
    "country": "BRASIL"
  },
  {
    "code": "SNMU",
    "brazilian": 1,
    "state": "BA",
    "latitude": -18.048900604248047,
    "longitude": -39.864200592041016,
    "name": "MUCURI",
    "city": "MUCURI",
    "country": "BRASIL"
  },
  {
    "code": "SNMZ",
    "brazilian": 1,
    "state": "PA",
    "latitude": -1.741449952125549,
    "longitude": -52.23609924316406,
    "name": "PORTO DE MOZ",
    "city": "PORTO DE MOZ",
    "country": "BRASIL"
  },
  {
    "code": "SNNG",
    "brazilian": 1,
    "state": "PA",
    "latitude": -7.125833,
    "longitude": -55.400833,
    "name": "PROGRESSO",
    "city": "NOVO PROGRESSO",
    "country": "BRASIL"
  },
  {
    "code": "SNOX",
    "brazilian": 1,
    "state": "PA",
    "latitude": -1.7140799760818481,
    "longitude": -55.83620071411133,
    "name": "ORIXIMINÁ",
    "city": "ORIXIMINÁ",
    "country": "BRASIL"
  },
  {
    "code": "SNPD",
    "brazilian": 1,
    "state": "MG",
    "latitude": -18.672800064086914,
    "longitude": -46.4911994934082,
    "name": "PATOS DE MINAS",
    "city": "PATOS DE MINAS",
    "country": "BRASIL"
  },
  {
    "code": "SNQD",
    "brazilian": 1,
    "state": "PB",
    "latitude": -6.78543996811,
    "longitude": -38.2333984375,
    "name": "SOUSA",
    "city": "SOUSA",
    "country": "BRASIL"
  },
  {
    "code": "SNTF",
    "brazilian": 1,
    "state": "BA",
    "latitude": -17.524499893188,
    "longitude": -39.66849899292,
    "name": "TEIXEIRA DE FREITAS",
    "city": "TEIXEIRA DE FREITAS",
    "country": "BRASIL"
  },
  {
    "code": "SNTI",
    "brazilian": 1,
    "state": "PA",
    "latitude": -1.867169976234436,
    "longitude": -55.51440048217773,
    "name": "ÓBIDOS",
    "city": "ÓBIDOS",
    "country": "BRASIL"
  },
  {
    "code": "SNTO",
    "brazilian": 1,
    "state": "MG",
    "latitude": -17.89229965209961,
    "longitude": -41.51359939575195,
    "name": "JUSCELINO KUBITSCHECK",
    "city": "TEÓFILO OTONI",
    "country": "BRASIL"
  },
  {
    "code": "SNTS",
    "brazilian": 1,
    "state": "PB",
    "latitude": -7.038990020751952,
    "longitude": -37.2515983581543,
    "name": "PEREGRINO FILHO",
    "city": "PATOS",
    "country": "BRASIL"
  },
  {
    "code": "SNVB",
    "brazilian": 1,
    "state": "BA",
    "latitude": -13.2965,
    "longitude": -38.992401,
    "name": "VALENÇA",
    "city": "VALENÇA",
    "country": "BRASIL"
  },
  {
    "code": "SNVS",
    "brazilian": 1,
    "state": "PA",
    "latitude": -1.6365300416946411,
    "longitude": -50.44359970092773,
    "name": "BREVES",
    "city": "BREVES",
    "country": "BRASIL"
  },
  {
    "code": "SNYA",
    "brazilian": 1,
    "state": "PA",
    "latitude": -1.4919439554214478,
    "longitude": -52.57833480834961,
    "name": "ALMEIRIM",
    "city": "ALMEIRIM",
    "country": "BRASIL"
  },
  {
    "code": "SOCA",
    "brazilian": 0,
    "state": "",
    "latitude": 4.8198099139999995,
    "longitude": -52.36040115,
    "name": "CAYENNE-ROCHAMBEAU AIRPORT",
    "city": "CAIENA",
    "country": "GUIANA FRANCESA"
  },
  {
    "code": "SPIM",
    "brazilian": 0,
    "state": "",
    "latitude": -12.0219,
    "longitude": -77.114305,
    "name": "JORGE CHÃVEZ INTERNATIONAL AIRPORT",
    "city": "LIMA",
    "country": "PERU"
  },
  {
    "code": "SPJC",
    "brazilian": 0,
    "state": "",
    "latitude": -12.0219,
    "longitude": -77.114305,
    "name": "JORGE CHÃVEZ INTERNATIONAL AIRPORT",
    "city": "LIMA",
    "country": "PERU"
  },
  {
    "code": "SSDO",
    "brazilian": 1,
    "state": "MS",
    "latitude": -22.2019,
    "longitude": -54.926601,
    "name": "MUNICIPAL FRANCISCO DE MATOS PEREIRA",
    "city": "DOURADOS",
    "country": "BRASIL"
  },
  {
    "code": "SSER",
    "brazilian": 1,
    "state": "RS",
    "latitude": -27.66189956665039,
    "longitude": -52.2682991027832,
    "name": "ERECHIM",
    "city": "ERECHIM",
    "country": "BRASIL"
  },
  {
    "code": "SSFB",
    "brazilian": 1,
    "state": "PR",
    "latitude": -26.059200286865234,
    "longitude": -53.0634994506836,
    "name": "AEROPORTO PAULO ABDALA",
    "city": "FRANCISCO BELTRÃO",
    "country": "BRASIL"
  },
  {
    "code": "SSJA",
    "brazilian": 1,
    "state": "SC",
    "latitude": -27.1714000702,
    "longitude": -51.5532989502,
    "name": "SANTA TEREZINHA",
    "city": "JOAÇABA",
    "country": "BRASIL"
  },
  {
    "code": "SSKW",
    "brazilian": 1,
    "state": "RO",
    "latitude": -11.496,
    "longitude": -61.4508,
    "name": "CACOAL",
    "city": "CACOAL",
    "country": "BRASIL"
  },
  {
    "code": "SSNM",
    "brazilian": 1,
    "state": "MT",
    "latitude": -9.965832710266113,
    "longitude": -54.8849983215332,
    "name": "GUARANTÃ",
    "city": "GUARANTÃ DO NORTE",
    "country": "BRASIL"
  },
  {
    "code": "SSPB",
    "brazilian": 1,
    "state": "PR",
    "latitude": -26.217184000000003,
    "longitude": -52.694463,
    "name": "JUVENAL LOUREIRO CARDOSO",
    "city": "PATO BRANCO",
    "country": "BRASIL"
  },
  {
    "code": "SSTD",
    "brazilian": 1,
    "state": "RS",
    "latitude": -28.55083274841309,
    "longitude": -51.59611129760742,
    "name": "TOLEDO",
    "city": "TOLEDO",
    "country": "BRASIL"
  },
  {
    "code": "SSTL",
    "brazilian": 1,
    "state": "MS",
    "latitude": -20.754199981689,
    "longitude": -51.68420028686499,
    "name": "AEROPORTO REGIONAL PLÍNIO ALARCON",
    "city": "TRÊS LAGOAS",
    "country": "BRASIL"
  },
  {
    "code": "SSUM",
    "brazilian": 1,
    "state": "PR",
    "latitude": -23.7987003326416,
    "longitude": -53.31380081176758,
    "name": "ORLANDO DE CARVALHO",
    "city": "UMUARAMA",
    "country": "BRASIL"
  },
  {
    "code": "SSUW",
    "brazilian": 1,
    "state": "PR",
    "latitude": -22.775956,
    "longitude": -51.505539,
    "name": "GUARAPUAVA",
    "city": "GUARAPUAVA",
    "country": "BRASIL"
  },
  {
    "code": "SSVI",
    "brazilian": 1,
    "state": "SC",
    "latitude": -26.99970054626465,
    "longitude": -51.14189910888672,
    "name": "ÂNGELO PONZONI",
    "city": "VIDEIRA",
    "country": "BRASIL"
  },
  {
    "code": "SSZR",
    "brazilian": 1,
    "state": "RS",
    "latitude": -27.9067,
    "longitude": -54.520401,
    "name": "SANTA ROSA",
    "city": "SANTA ROSA",
    "country": "BRASIL"
  },
  {
    "code": "SULS",
    "brazilian": 0,
    "state": "",
    "latitude": -34.85509872,
    "longitude": -55.09429932,
    "name": "C/C CARLOS A. CURBELO DE LAGUNA DEL SAUCE INTERNATIONAL AIRPORT",
    "city": "MALDONADO-URUGUAI",
    "country": "URUGUAI"
  },
  {
    "code": "SUMU",
    "brazilian": 0,
    "state": "",
    "latitude": -34.838402,
    "longitude": -56.0308,
    "name": "CARRASCO GRAL. CESÃREO L. BERISSO INTERNATIONAL AIRPORT",
    "city": "MONTEVIDEU",
    "country": "URUGUAI"
  },
  {
    "code": "SUPE",
    "brazilian": 0,
    "state": "",
    "latitude": -34.91699982,
    "longitude": -54.91699982,
    "name": "EL JAGÃœEL AIRPORT",
    "city": "PUNTA DEL ESTE",
    "country": "URUGUAI"
  },
  {
    "code": "SURV",
    "brazilian": 0,
    "state": "",
    "latitude": -30.97459984,
    "longitude": -55.47620010000001,
    "name": "PTE. GRAL. Ã“SCAR D. GESTIDO INTERNATIONAL AIRPORT",
    "city": "INTL RIVERA",
    "country": "URUGUAI"
  },
  {
    "code": "SVMI",
    "brazilian": 0,
    "state": "",
    "latitude": 10.601194,
    "longitude": -66.991222,
    "name": "SIMON BOLIVAR INTERNATIONAL AIRPORT (MAIQUETIA INTERNATIONAL AIRPORT)",
    "city": "CARACAS/INTL",
    "country": "VENEZUELA"
  },
  {
    "code": "SWBC",
    "brazilian": 1,
    "state": "AM",
    "latitude": -0.981292,
    "longitude": -62.919601,
    "name": "BARCELOS",
    "city": "BARCELOS",
    "country": "BRASIL"
  },
  {
    "code": "SWBR",
    "brazilian": 1,
    "state": "AM",
    "latitude": -4.4063401222229,
    "longitude": -59.60240173339844,
    "name": "BORBA",
    "city": "BORBA",
    "country": "BRASIL"
  },
  {
    "code": "SWCA",
    "brazilian": 1,
    "state": "AM",
    "latitude": -4.871520042419434,
    "longitude": -66.89749908447266,
    "name": "CARAUARI",
    "city": "CARAUARI",
    "country": "BRASIL"
  },
  {
    "code": "SWEI",
    "brazilian": 1,
    "state": "AM",
    "latitude": -6.639530181884767,
    "longitude": -69.87979888916016,
    "name": "EIRUNEPÉ",
    "city": "EIRUNEPÉ",
    "country": "BRASIL"
  },
  {
    "code": "SWFN",
    "brazilian": 1,
    "state": "AM",
    "latitude": -3.0727779865264893,
    "longitude": -60.02111053466797,
    "name": "FLORES",
    "city": "MANAUS",
    "country": "BRASIL"
  },
  {
    "code": "SWFX",
    "brazilian": 1,
    "state": "MT",
    "latitude": -11.632399559020994,
    "longitude": -50.68960189819336,
    "name": "SÃO FÉLIX DO ARAGUAIA",
    "city": "SÃO FÉLIX DO ARAGUAIA",
    "country": "BRASIL"
  },
  {
    "code": "SWGI",
    "brazilian": 1,
    "state": "TO",
    "latitude": -11.73960018157959,
    "longitude": -49.13219833374024,
    "name": "GURUPI",
    "city": "GURUPI",
    "country": "BRASIL"
  },
  {
    "code": "SWGN",
    "brazilian": 1,
    "state": "TO",
    "latitude": -7.2278699999999985,
    "longitude": -48.240501,
    "name": "ARAGUAÍNA",
    "city": "ARAGUAÍNA",
    "country": "BRASIL"
  },
  {
    "code": "SWHT",
    "brazilian": 1,
    "state": "AM",
    "latitude": -7.532120227810001,
    "longitude": -63.072101593,
    "name": "FRANCISCO CORREA DA CRUZ",
    "city": "HUMAITÁ",
    "country": "BRASIL"
  },
  {
    "code": "SWIQ",
    "brazilian": 1,
    "state": "GO",
    "latitude": -13.5491,
    "longitude": -48.195301,
    "name": "MINAÇU",
    "city": "MINAÇU",
    "country": "BRASIL"
  },
  {
    "code": "SWJH",
    "brazilian": 1,
    "state": "MT",
    "latitude": -11.286667,
    "longitude": -57.53888900000001,
    "name": "JUARA",
    "city": "JUARA",
    "country": "BRASIL"
  },
  {
    "code": "SWJI",
    "brazilian": 1,
    "state": "RO",
    "latitude": -10.870800018299999,
    "longitude": -61.8465003967,
    "name": "JI-PARANÁ",
    "city": "JI-PARANÁ",
    "country": "BRASIL"
  },
  {
    "code": "SWJN",
    "brazilian": 1,
    "state": "MT",
    "latitude": -11.419444,
    "longitude": -58.70166800000001,
    "name": "JUÍNA",
    "city": "JUÍNA",
    "country": "BRASIL"
  },
  {
    "code": "SWJU",
    "brazilian": 1,
    "state": "MT",
    "latitude": -10.305832862854004,
    "longitude": -58.48944473266602,
    "name": "JURUENA",
    "city": "JURUENA",
    "country": "BRASIL"
  },
  {
    "code": "SWKN",
    "brazilian": 1,
    "state": "GO",
    "latitude": -17.724722,
    "longitude": -48.61,
    "name": "CALDAS NOVAS",
    "city": "CALDAS NOVAS",
    "country": "BRASIL"
  },
  {
    "code": "SWKO",
    "brazilian": 1,
    "state": "AM",
    "latitude": -4.1340599060058585,
    "longitude": -63.13259887695313,
    "name": "COARI",
    "city": "COARI",
    "country": "BRASIL"
  },
  {
    "code": "SWLB",
    "brazilian": 1,
    "state": "AM",
    "latitude": -7.278969764709473,
    "longitude": -64.76950073242189,
    "name": "LÁBREA",
    "city": "LÁBREA",
    "country": "BRASIL"
  },
  {
    "code": "SWLC",
    "brazilian": 1,
    "state": "GO",
    "latitude": -17.8347225189209,
    "longitude": -50.95611190795898,
    "name": "GENERAL LEITE DE CASTRO",
    "city": "RIO VERDE",
    "country": "BRASIL"
  },
  {
    "code": "SWMP",
    "brazilian": 1,
    "state": "MT",
    "latitude": -9.78596,
    "longitude": -54.908,
    "name": "MATUPA",
    "city": "GUARANTÃ DO NORTE",
    "country": "BRASIL"
  },
  {
    "code": "SWMW",
    "brazilian": 1,
    "state": "AM",
    "latitude": -3.37217,
    "longitude": -57.7248,
    "name": "MAUÉS",
    "city": "MAUÉS",
    "country": "BRASIL"
  },
  {
    "code": "SWNA",
    "brazilian": 1,
    "state": "AM",
    "latitude": -5.118030071258545,
    "longitude": -60.36489868164063,
    "name": "NOVO ARIPUANÃ",
    "city": "NOVO ARIPUANÃ",
    "country": "BRASIL"
  },
  {
    "code": "SWNK",
    "brazilian": 1,
    "state": "AM",
    "latitude": -8.83456,
    "longitude": -67.312401,
    "name": "NOVO CAMPO",
    "city": "BOCA DO ACRE",
    "country": "BRASIL"
  },
  {
    "code": "SWOB",
    "brazilian": 1,
    "state": "AM",
    "latitude": -2.5326099395800004,
    "longitude": -66.0831985474,
    "name": "FONTE BOA",
    "city": "FONTE BOA",
    "country": "BRASIL"
  },
  {
    "code": "SWPI",
    "brazilian": 1,
    "state": "AM",
    "latitude": -2.6730198860168457,
    "longitude": -56.777198791503906,
    "name": "JÚLIO BÉLEM",
    "city": "PARINTINS",
    "country": "BRASIL"
  },
  {
    "code": "SWRD",
    "brazilian": 1,
    "state": "MT",
    "latitude": -16.586,
    "longitude": -54.7248,
    "name": "RONDONÓPOLIS",
    "city": "RONDONÓPOLIS",
    "country": "BRASIL"
  },
  {
    "code": "SWRP",
    "brazilian": 1,
    "state": "MT",
    "latitude": -10.188278,
    "longitude": -59.457273,
    "name": "ARIPUANA",
    "city": "ARIPUANÃ",
    "country": "BRASIL"
  },
  {
    "code": "SWSI",
    "brazilian": 1,
    "state": "MT",
    "latitude": -11.885001,
    "longitude": -55.58610899999999,
    "name": "PRESIDENTE JOÃO BATISTA FIGUEIREDO",
    "city": "SINOP",
    "country": "BRASIL"
  },
  {
    "code": "SWTP",
    "brazilian": 1,
    "state": "AM",
    "latitude": -0.3786,
    "longitude": -64.9923,
    "name": "TAPURUQUARA",
    "city": "SANTA ISABEL DO RIO NEGRO",
    "country": "BRASIL"
  },
  {
    "code": "SWTS",
    "brazilian": 1,
    "state": "MT",
    "latitude": -14.662,
    "longitude": -57.443501,
    "name": "TANGARÁ DA SERRA",
    "city": "TANGARÁ DA SERRA",
    "country": "BRASIL"
  },
  {
    "code": "SWTU",
    "brazilian": 1,
    "state": "MT",
    "latitude": -13.465528,
    "longitude": -58.866935,
    "name": "FAZENDA TUCUNARE",
    "city": "CAMPO NOVO DO PARECIS",
    "country": "BRASIL"
  },
  {
    "code": "SWUY",
    "brazilian": 1,
    "state": "AM",
    "latitude": -4.88422012329,
    "longitude": -65.3554000854,
    "name": "URUCU",
    "city": "COARI",
    "country": "BRASIL"
  },
  {
    "code": "SYCJ",
    "brazilian": 0,
    "state": "",
    "latitude": 6.498549937999999,
    "longitude": -58.25410079999999,
    "name": "CHEDDI JAGAN INTERNATIONAL AIRPORT",
    "city": "CHEDDI JAGAN INTL",
    "country": "GUIANA"
  }
]